{"nickname":"chickens","startTimeUtc":"2021-07-13T08:56:15.7878884Z","tournament":{"players":[{"playerId":"5e81caa3d51dd62ccc447f85","playerName":"Dadge City","totalPoints":23824,"games":[{"gamePoints":23824}]}]},"games":[{"allGuesses":[[{"playerName":"Dadge City","playerId":"5e81caa3d51dd62ccc447f85","roundScoreInPoints":4955,"distanceInMeters":825.6012539182,"time":60,"lat":51.35653053973044,"lng":-0.09755246620418045}],[{"playerName":"Dadge City","playerId":"5e81caa3d51dd62ccc447f85","roundScoreInPoints":4160,"distanceInMeters":16854.4182602768,"time":60,"lat":50.62361265656377,"lng":-4.676079357213778}],[{"playerName":"Dadge City","playerId":"5e81caa3d51dd62ccc447f85","roundScoreInPoints":4993,"distanceInMeters":130.3669997034,"time":60,"lat":53.38077262409473,"lng":-1.4703916781096238}],[{"playerName":"Dadge City","playerId":"5e81caa3d51dd62ccc447f85","roundScoreInPoints":4783,"distanceInMeters":4067.0567344608,"time":60,"lat":51.627555310806116,"lng":-0.7415358539691952}],[{"playerName":"Dadge City","playerId":"5e81caa3d51dd62ccc447f85","roundScoreInPoints":4933,"distanceInMeters":1239.4271339535,"time":60,"lat":52.48686395474947,"lng":1.7349950333494046}]],"playerGames":[{"player":"Dadge City","playerId":"5e81caa3d51dd62ccc447f85","points":23824,"r1":{"points":4955,"time":60},"r2":{"points":4160,"time":60},"r3":{"points":4993,"time":60},"r4":{"points":4783,"time":60},"r5":{"points":4933,"time":60},"eliminatedInGame":null,"totalDistanceInMeters":23116.870382312703,"totalTime":300,"pinUrl":"pin/436b2c79c893b097346d306d5da52da3.png"}],"answers":[{"lat":51.3504753112793,"lng":-0.104432612657547,"countryCode":null,"countryName":null},{"lat":50.480796813964844,"lng":-4.756002902984619,"countryCode":null,"countryName":null},{"lat":53.38043975830078,"lng":-1.4685070514678955,"countryCode":null,"countryName":null},{"lat":51.60595703125,"lng":-0.6939966082572937,"countryCode":null,"countryName":null},{"lat":52.4785041809082,"lng":1.7471013069152832,"countryCode":null,"countryName":null}],"mapName":"England \u0026 Wales","gameNumber":1,"gameUrl":"https://www.geoguessr.com/results/Ws4SasKNPv0YS9Jp","gameId":"Ws4SasKNPv0YS9Jp","gameDescription":"60 sec. Moving allowed","playedWithEliminations":false,"forbidMoving":false,"forbidRotating":false,"forbidZooming":false,"timeLimit":60}]}