{"nickname":"juice","startTimeUtc":"2021-07-13T08:27:42.0199691Z","tournament":{"players":[{"playerId":"5e81caa3d51dd62ccc447f85","playerName":"Dadge City","totalPoints":10381,"games":[{"gamePoints":10381}]}]},"games":[{"allGuesses":[[{"playerName":"Dadge City","playerId":"5e81caa3d51dd62ccc447f85","roundScoreInPoints":4683,"distanceInMeters":6001.8525799912,"time":60,"lat":52.50814080489699,"lng":-3.354385231193775}],[{"playerName":"Dadge City","playerId":"5e81caa3d51dd62ccc447f85","roundScoreInPoints":4961,"distanceInMeters":711.1976404046,"time":60,"lat":53.40513914802927,"lng":-2.9781795110477516}],[{"playerName":"Dadge City","playerId":"5e81caa3d51dd62ccc447f85","roundScoreInPoints":193,"distanceInMeters":298194.4302740518,"time":60,"lat":53.30429206752343,"lng":-1.260050890866542}],[{"playerName":"Dadge City","playerId":"5e81caa3d51dd62ccc447f85","roundScoreInPoints":544,"distanceInMeters":203299.6923296029,"time":60,"lat":50.963787147179,"lng":-0.23404195848757858}],[{"playerName":"Dadge City","playerId":"5e81caa3d51dd62ccc447f85","roundScoreInPoints":0,"distanceInMeters":5917995.004283819,"time":60,"lat":0,"lng":0}]],"playerGames":[{"player":"Dadge City","playerId":"5e81caa3d51dd62ccc447f85","points":10381,"r1":{"points":4683,"time":60},"r2":{"points":4961,"time":60},"r3":{"points":193,"time":60},"r4":{"points":544,"time":60},"r5":{"points":0,"time":60},"eliminatedInGame":null,"totalDistanceInMeters":6426202.17710787,"totalTime":300,"pinUrl":"pin/436b2c79c893b097346d306d5da52da3.png"}],"answers":[{"lat":52.56181716918945,"lng":-3.3450489044189453,"countryCode":null,"countryName":null},{"lat":53.39885330200195,"lng":-2.9761974811553955,"countryCode":null,"countryName":null},{"lat":50.802574157714844,"lng":0.31156569719314575,"countryCode":null,"countryName":null},{"lat":51.16763687133789,"lng":-3.1254446506500244,"countryCode":null,"countryName":null},{"lat":53.20498275756836,"lng":-1.6056545972824097,"countryCode":null,"countryName":null}],"mapName":"England \u0026 Wales","gameNumber":1,"gameUrl":"https://www.geoguessr.com/results/ledlpXA5wIKlgBRq","gameId":"ledlpXA5wIKlgBRq","gameDescription":"60 sec. Moving allowed","playedWithEliminations":false,"forbidMoving":false,"forbidRotating":false,"forbidZooming":false,"timeLimit":60}]}