{"nickname":"buyer","startTimeUtc":"2021-08-23T19:00:34.7897623Z","tournament":{"players":[{"playerId":"5e81caa3d51dd62ccc447f85","playerName":"DadgeCity on Twitch","totalPoints":35890,"games":[{"gamePoints":19837},{"gamePoints":16053}]}]},"games":[{"allGuesses":[[{"playerName":"DadgeCity on Twitch","playerId":"5e81caa3d51dd62ccc447f85","roundScoreInPoints":4226,"distanceInMeters":250717.0328655892,"time":28,"lat":42.74594747989814,"lng":-75.92018533097597}],[{"playerName":"DadgeCity on Twitch","playerId":"5e81caa3d51dd62ccc447f85","roundScoreInPoints":4341,"distanceInMeters":210685.391813736,"time":38,"lat":48.805308637545664,"lng":14.60946722021478}],[{"playerName":"DadgeCity on Twitch","playerId":"5e81caa3d51dd62ccc447f85","roundScoreInPoints":3474,"distanceInMeters":542982.0098617941,"time":35,"lat":33.24417485341858,"lng":-110.19097329093135}],[{"playerName":"DadgeCity on Twitch","playerId":"5e81caa3d51dd62ccc447f85","roundScoreInPoints":2783,"distanceInMeters":874096.122188643,"time":34,"lat":-21.775202227176667,"lng":-51.70010537649406}],[{"playerName":"DadgeCity on Twitch","playerId":"5e81caa3d51dd62ccc447f85","roundScoreInPoints":1229,"distanceInMeters":2093043.8556642423,"time":27,"lat":35.70694671543138,"lng":139.76893395906188}]],"playerGames":[{"player":"DadgeCity on Twitch","playerId":"5e81caa3d51dd62ccc447f85","points":16053,"r1":{"points":4226,"time":28},"r2":{"points":4341,"time":38},"r3":{"points":3474,"time":35},"r4":{"points":2783,"time":34},"r5":{"points":1229,"time":27},"eliminatedInGame":null,"totalDistanceInMeters":3971524.412394005,"totalTime":162,"pinUrl":"pin/436b2c79c893b097346d306d5da52da3.png"}],"answers":[{"lat":40.61708450317383,"lng":-74.92532348632812,"countryCode":"US","countryName":"United States of America"},{"lat":49.62272644042969,"lng":17.22644805908203,"countryCode":"CZ","countryName":"Czech Republic"},{"lat":36.35788345336914,"lng":-105.6081771850586,"countryCode":"US","countryName":"United States of America"},{"lat":-22.870288848876953,"lng":-43.283912658691406,"countryCode":"BR","countryName":"Brazil"},{"lat":39.89967346191406,"lng":116.46866607666016,"countryCode":"CN","countryName":"People\u0027s Republic of China"}],"mapName":"World","gameNumber":2,"gameUrl":"https://www.geoguessr.com/results/VIV51RisemxF5jv9","gameId":"VIV51RisemxF5jv9","gameDescription":"40 sec. Moving allowed","playedWithEliminations":false,"forbidMoving":false,"forbidRotating":false,"forbidZooming":false,"timeLimit":40},{"allGuesses":[[{"playerName":"DadgeCity on Twitch","playerId":"5e81caa3d51dd62ccc447f85","roundScoreInPoints":3203,"distanceInMeters":664267.837975568,"time":46,"lat":35.20333178464392,"lng":-94.22701429842114}],[{"playerName":"DadgeCity on Twitch","playerId":"5e81caa3d51dd62ccc447f85","roundScoreInPoints":4988,"distanceInMeters":3480.0921839866,"time":41,"lat":50.940095111000474,"lng":6.984348262450748}],[{"playerName":"DadgeCity on Twitch","playerId":"5e81caa3d51dd62ccc447f85","roundScoreInPoints":2701,"distanceInMeters":918819.3433510244,"time":32,"lat":34.71601652242824,"lng":-86.77599854390546}],[{"playerName":"DadgeCity on Twitch","playerId":"5e81caa3d51dd62ccc447f85","roundScoreInPoints":4702,"distanceInMeters":91818.5631718137,"time":32,"lat":32.801952063996076,"lng":130.7134150932443}],[{"playerName":"DadgeCity on Twitch","playerId":"5e81caa3d51dd62ccc447f85","roundScoreInPoints":4243,"distanceInMeters":245052.8560553002,"time":20,"lat":7.921002615425521,"lng":-73.42564023169489}]],"playerGames":[{"player":"DadgeCity on Twitch","playerId":"5e81caa3d51dd62ccc447f85","points":19837,"r1":{"points":3203,"time":46},"r2":{"points":4988,"time":41},"r3":{"points":2701,"time":32},"r4":{"points":4702,"time":32},"r5":{"points":4243,"time":20},"eliminatedInGame":null,"totalDistanceInMeters":1923438.692737693,"totalTime":171,"pinUrl":"pin/436b2c79c893b097346d306d5da52da3.png"}],"answers":[{"lat":38.039424896240234,"lng":-87.67300415039062,"countryCode":"US","countryName":"United States of America"},{"lat":50.95716094970703,"lng":6.94270658493042,"countryCode":"DE","countryName":"Germany"},{"lat":42.53190994262695,"lng":-83.33551788330078,"countryCode":"US","countryName":"United States of America"},{"lat":33.59030532836914,"lng":130.41983032226562,"countryCode":"JP","countryName":"Japan"},{"lat":8.559113502502441,"lng":-75.55706787109375,"countryCode":"CO","countryName":"Colombia"}],"mapName":"World","gameNumber":1,"gameUrl":"https://www.geoguessr.com/results/tMd7SoXu8Rw0FTHP","gameId":"tMd7SoXu8Rw0FTHP","gameDescription":"50 sec. Moving allowed","playedWithEliminations":false,"forbidMoving":false,"forbidRotating":false,"forbidZooming":false,"timeLimit":50}]}